{
    "monuments": [
        {
            "name": "Morro da rapidinha",
            "descr": "Local reservado, porém a segurança é questionável. Privacidade 5/5, Segurança 2/5",
            "lat": -27.649275,
            "lng": -52.257555,
            "img": "http://4.bp.blogspot.com/-rFUbjRBWPWU/VCWQssWwNxI/AAAAAAAAAq4/UFUsCZa0w5s/w1200-h630-p-k-no-nu/castelinho%2Bde%2BErechim.jpg"
        },
        {
            "name": "Beco escuro",
            "descr": "Excelente local pela comodidade e segurança, cuidado com vigias noturnos. Privacidade 4/5, Segurança 4/5",
            "lat": -27.628929,
            "lng": -52.280387,
            "img": "https://i2.wp.com/erechimonline.com/site/wp-content/uploads/2016/03/seminario-1-Medium.jpg?fit=1154%2C768"
        },
        {
            "name": "Pedreira",
            "descr": "Local isolado para quem prefere demorar ou levar companhias discretas. Privacidade 5/5, Segurança 1/5",
            "lat": -27.630652,
            "lng": -52.291723,
            "img": "http://www.vivendashotel.com.br/centro/uploads/blog/3043f019ca494d5bf832f6774219f3c6.jpg"
        },
        {
            "name": "Mato da comessão",
            "descr": "Tudo depende do horario, mas é excelente. Privacidade 2/5, Segurança 4/5",
            "lat": -27.636929,
            "lng": -52.263632,
            "img": "https://www.pmerechim.rs.gov.br/uploads/categories/358/gallery_big_d096467f659c81c5408ddd7014bc1b0e.jpg"
        },
        {
            "name": "Cascata Nazzari",
            "descr": "A cascata não vai ser a unica molhada. Privacidade 5/5, Segurança 5/5",
            "lat": -27.685304,
            "lng": -52.175799,
            "img": "https://macamp.com.br/guia/wp-content/uploads//arquivos/guia/arquivos/1639/imagens/Capture_3.jpg"
        },
        {
            "name": "Esc. São José",
            "descr": "Excelente durante as coites chuvosas. Privacidade 4/5, Segurança 4/5",
            "lat": -27.637064,
            "lng": -52.269088,
            "img": "http://4.bp.blogspot.com/-rFUbjRBWPWU/VCWQssWwNxI/AAAAAAAAAq4/UFUsCZa0w5s/w1200-h630-p-k-no-nu/castelinho%2Bde%2BErechim.jpg"
        },
        {
            "name": "Pra baixo dos trilhos do Koller",
            "descr": "Apartir das 22H. Privacidade 6/5, Segurança 1/5",
            "lat": -27.645200,
            "lng": -52.292576,
            "img": "http://4.bp.blogspot.com/-rFUbjRBWPWU/VCWQssWwNxI/AAAAAAAAAq4/UFUsCZa0w5s/w1200-h630-p-k-no-nu/castelinho%2Bde%2BErechim.jpg"
        }
    ]
}